{"type":"FeatureCollection","crs":{"type":"name","properties":{"name":"urn:ogc:def:crs:OGC:1.3:CRS84"}},"features":[{"type":"Feature","properties":{"Parcel number":"1976200105","Taxpayer name":"PIKE PL MARKET PDA               ","Parcel address":"1423 1ST AVE ","Jurisdiction":"SEATTLE","Zip code":"98101","Appraised value":"16495800","Assessor's report":"Report","Latitude":47.60848,"Longitude":-122.34015},"geometry":null},{"type":"Feature","properties":{"Parcel number":"1976200165","Taxpayer name":"PIKE PL MARKET PDA               ","Parcel address":"1534 PIKE PL ","Jurisdiction":"SEATTLE","Zip code":"98101","Appraised value":"2804900","Assessor's report":"Report","Latitude":47.60941,"Longitude":-122.34146},"geometry":null},{"type":"Feature","properties":{"Parcel number":"1976200170","Taxpayer name":"PIKE PL MARKET PDA               ","Parcel address":"PIKE PL ","Jurisdiction":"SEATTLE","Zip code":"98101","Appraised value":"328600","Assessor's report":"Report","Latitude":47.60963,"Longitude":-122.34215},"geometry":null},{"type":"Feature","properties":{"Parcel number":"1976200185","Taxpayer name":"PIKE PL MARKET PDA               ","Parcel address":"PIKE PL ","Jurisdiction":"SEATTLE","Zip code":"98101","Appraised value":"686000","Assessor's report":"Report","Latitude":47.60953,"Longitude":-122.34216},"geometry":null},{"type":"Feature","properties":{"Parcel number":"1976200190","Taxpayer name":"PIKE PL MARKET PDA               ","Parcel address":"1528 PIKE PL ","Jurisdiction":"SEATTLE","Zip code":"98101","Appraised value":"283500","Assessor's report":"Report","Latitude":47.6093,"Longitude":-122.34132},"geometry":null},{"type":"Feature","properties":{"Parcel number":"1976200195","Taxpayer name":"PIKE PL MARKET PDA               ","Parcel address":"1520 PIKE PL ","Jurisdiction":"SEATTLE","Zip code":"98101","Appraised value":"838000","Assessor's report":"Report","Latitude":47.60921,"Longitude":-122.3412742},"geometry":null},{"type":"Feature","properties":{"Parcel number":"1976200205","Taxpayer name":"PIKE PL MARKET PDA               ","Parcel address":"1501 PIKE PL ","Jurisdiction":"SEATTLE","Zip code":"98101","Appraised value":"24874100","Assessor's report":"Report","Latitude":47.608709,"Longitude":-122.3410473},"geometry":null},{"type":"Feature","properties":{"Parcel number":"1976200210","Taxpayer name":"PIKE PL MARKET PDA               ","Parcel address":"1513 1ST AVE ","Jurisdiction":"SEATTLE","Zip code":"98101","Appraised value":"13156600","Assessor's report":"Report","Latitude":47.6089744051017,"Longitude":122.340431280398},"geometry":null},{"type":"Feature","properties":{"Parcel number":"1976200230","Taxpayer name":"PIKE PL MARKET PDA               ","Parcel address":"1505 1ST AVE ","Jurisdiction":"SEATTLE","Zip code":"98101","Appraised value":"7752100","Assessor's report":"Report","Latitude":47.6089592197712,"Longitude":-122.340417345453},"geometry":null},{"type":"Feature","properties":{"Parcel number":"1977200050","Taxpayer name":"INN AT MARKET                    ","Parcel address":"86 PINE ST ","Jurisdiction":"SEATTLE","Zip code":"98101","Appraised value":"37369200","Assessor's report":"Report","Latitude":47.609884,"Longitude":-122.3414409},"geometry":null},{"type":"Feature","properties":{"Parcel number":"1977200385","Taxpayer name":"PIKE PLACE MARKET PRESERVAT      ","Parcel address":"1901 PIKE PL ","Jurisdiction":"SEATTLE","Zip code":"98101","Appraised value":null,"Assessor's report":"Report","Latitude":47.609639118876,"Longitude":-122.342482330151},"geometry":null},{"type":"Feature","properties":{"Parcel number":"1977200395","Taxpayer name":"PIKE PLACE MARKET PDA            ","Parcel address":"1925 1ST AVE ","Jurisdiction":"SEATTLE","Zip code":"98101","Appraised value":"28053000","Assessor's report":"Report","Latitude":47.6106973,"Longitude":-122.3425906},"geometry":null},{"type":"Feature","properties":{"Parcel number":"1977200405","Taxpayer name":"DCM THE CHAMPION BUILDING L      ","Parcel address":"1926 PIKE PL ","Jurisdiction":"SEATTLE","Zip code":"98101","Appraised value":"7560400","Assessor's report":"Report","Latitude":47.6103716,"Longitude":-122.3428498},"geometry":null},{"type":"Feature","properties":{"Parcel number":"1977200410","Taxpayer name":"PIKE PL MARKET PDA               ","Parcel address":"1918 PIKE PL ","Jurisdiction":"SEATTLE","Zip code":"98101","Appraised value":"5911100","Assessor's report":"Report","Latitude":47.6102632,"Longitude":-122.3426667},"geometry":null},{"type":"Feature","properties":{"Parcel number":"1977200415","Taxpayer name":"LAURENCIA LLC                    ","Parcel address":"1923 1ST AVE ","Jurisdiction":"SEATTLE","Zip code":"98101","Appraised value":"3465400","Assessor's report":"Report","Latitude":47.6105618,"Longitude":-122.3423615},"geometry":null},{"type":"Feature","properties":{"Parcel number":"1977200416","Taxpayer name":"MCALEESE PROPRETIES LLC          ","Parcel address":"1921 1ST AVE ","Jurisdiction":"SEATTLE","Zip code":"98101","Appraised value":"5594000","Assessor's report":"Report","Latitude":47.6105075,"Longitude":-122.3422699},"geometry":null},{"type":"Feature","properties":{"Parcel number":"1977200420","Taxpayer name":"ALASKA TRADE BLDG                ","Parcel address":"1917 1ST AVE ","Jurisdiction":"SEATTLE","Zip code":"98101","Appraised value":"9491800","Assessor's report":"Report","Latitude":47.6104263,"Longitude":-122.3421325},"geometry":null},{"type":"Feature","properties":{"Parcel number":"1977200425","Taxpayer name":"PIKE PL MARKET PDA               ","Parcel address":"1912 PIKE PL ","Jurisdiction":"SEATTLE","Zip code":"98101","Appraised value":"2652600","Assessor's report":"Report","Latitude":47.6100753,"Longitude":-122.3424736},"geometry":null},{"type":"Feature","properties":{"Parcel number":"1977200435","Taxpayer name":"TW FAIRMOUNT PARTNERS L P        ","Parcel address":"1901 1ST AVE ","Jurisdiction":"SEATTLE","Zip code":"98101","Appraised value":"14744300","Assessor's report":"Report","Latitude":47.6102638,"Longitude":-122.3418577},"geometry":null},{"type":"Feature","properties":{"Parcel number":"2694800000","Taxpayer name":null,"Parcel address":"1606 PIKE PL ","Jurisdiction":null,"Zip code":"98101","Appraised value":null,"Assessor's report":"Report","Latitude":null,"Longitude":null},"geometry":null},{"type":"Feature","properties":{"Parcel number":"5160500000","Taxpayer name":null,"Parcel address":"1531 1ST AVE ","Jurisdiction":null,"Zip code":"98101","Appraised value":null,"Assessor's report":"Report","Latitude":null,"Longitude":null},"geometry":null},{"type":"Feature","properties":{"Parcel number":"5160650000","Taxpayer name":null,"Parcel address":"2021 1ST AVE ","Jurisdiction":null,"Zip code":"98121","Appraised value":null,"Assessor's report":"Report","Latitude":null,"Longitude":null},"geometry":null},{"type":"Feature","properties":{"Parcel number":"6785700000","Taxpayer name":null,"Parcel address":"87 VIRGINIA ST ","Jurisdiction":null,"Zip code":"98101","Appraised value":null,"Assessor's report":"Report","Latitude":null,"Longitude":null},"geometry":null},{"type":"Feature","properties":{"Parcel number":"8008550000","Taxpayer name":null,"Parcel address":"80 STEWART ST ","Jurisdiction":null,"Zip code":"98101","Appraised value":null,"Assessor's report":"Report","Latitude":null,"Longitude":null},"geometry":null},{"type":"Feature","properties":{"Parcel number":null,"Taxpayer name":null,"Parcel address":null,"Jurisdiction":null,"Zip code":null,"Appraised value":null,"Assessor's report":null,"Latitude":null,"Longitude":null},"geometry":null}]}
